[{"name":"I-66 West of Ox Rd","timestamp":1528805083,"has_quality_warning":false,"longitude":-77.37508,"latitude":38.857154,"state":"VA","d0":{"flow_quadrant":0,"congestion_level":0,"label":"EB","tracks":39907,"congestion_index":2},"sid":"042d9ade-84c6-11e5-99b2-44a842186463-66","tv_host":"042d9ade-84c6-11e5-99b2-44a842186463","timezone":"America/New_York","d1":{"flow_quadrant":2,"congestion_level":0,"label":"WB","tracks":125493,"congestion_index":"42.17"}},{"name":"I-395 @ King Street (Rte 7)","timestamp":1528805082,"has_quality_warning":false,"longitude":-77.096853,"latitude":38.834331,"state":"VA","d0":{"flow_quadrant":1,"congestion_level":-1,"label":"NB","tracks":0,"congestion_index":-1},"sid":"042d9ade-84c6-11e5-99b2-44a842186463-19","tv_host":"042d9ade-84c6-11e5-99b2-44a842186463","timezone":"America/New_York","d1":{"flow_quadrant":2,"congestion_level":0,"label":"SB","tracks":43654,"congestion_index":"4.57"}},{"name":"I-66 e/o Rt-123","timestamp":1528805082,"has_quality_warning":false,"longitude":-77.29501,"latitude":38.87125,"state":"VA","d0":{"flow_quadrant":3,"congestion_level":0,"label":"EB","tracks":81063,"congestion_index":13},"sid":"042d9ade-84c6-11e5-99b2-44a842186463-61","tv_host":"042d9ade-84c6-11e5-99b2-44a842186463","timezone":"America/New_York","d1":{"flow_quadrant":1,"congestion_level":0,"label":"WB","tracks":15413,"congestion_index":"3.47"}},{"name":"I-66 @ Patrick Henry Dr Overpass","timestamp":1528805084,"has_quality_warning":false,"longitude":-77.133624,"latitude":38.879155,"state":"VA","d0":{"flow_quadrant":3,"congestion_level":0,"label":"EB","tracks":153257,"congestion_index":34},"sid":"042d9ade-84c6-11e5-99b2-44a842186463-54","tv_host":"042d9ade-84c6-11e5-99b2-44a842186463","timezone":"America/New_York","d1":{"flow_quadrant":1,"congestion_level":0,"label":"WB","tracks":7453,"congestion_index":"12.38"}},{"name":"I-95 @ Prince William Parkway","timestamp":1528805083,"has_quality_warning":false,"longitude":-77.278823,"latitude":38.656574,"state":"VA","d0":{"flow_quadrant":3,"congestion_level":0,"label":"NB","tracks":145109,"congestion_index":32},"sid":"042d9ade-84c6-11e5-99b2-44a842186463-29","tv_host":"042d9ade-84c6-11e5-99b2-44a842186463","timezone":"America/New_York","d1":{"flow_quadrant":1,"congestion_level":0,"label":"SB","tracks":315,"congestion_index":"2"}},{"name":"I-495 @ Lewinsville Rd","timestamp":1528805081,"has_quality_warning":false,"longitude":-77.208308,"latitude":38.934161,"state":"VA","d0":{"flow_quadrant":3,"congestion_level":0,"label":"NB","tracks":29315,"congestion_index":16},"sid":"042d9ade-84c6-11e5-99b2-44a842186463-3","tv_host":"042d9ade-84c6-11e5-99b2-44a842186463","timezone":"America/New_York","d1":{"flow_quadrant":2,"congestion_level":-1,"label":"SB","tracks":0,"congestion_index":"-1"}},{"name":"I-66 @ Sycamore","timestamp":1528805083,"has_quality_warning":false,"longitude":-77.15222,"latitude":38.884734,"state":"VA","d0":{"flow_quadrant":0,"congestion_level":0,"label":"EB","tracks":60959,"congestion_index":4},"sid":"042d9ade-84c6-11e5-99b2-44a842186463-55","tv_host":"042d9ade-84c6-11e5-99b2-44a842186463","timezone":"America/New_York","d1":{"flow_quadrant":2,"congestion_level":0,"label":"WB","tracks":25195,"congestion_index":"2"}},{"name":"I-495 N @ Robinson Terminal","timestamp":1528805082,"has_quality_warning":false,"longitude":-77.194592,"latitude":38.79749,"state":"VA","d0":{"flow_quadrant":3,"congestion_level":0,"label":"NB","tracks":153160,"congestion_index":35},"sid":"042d9ade-84c6-11e5-99b2-44a842186463-7","tv_host":"042d9ade-84c6-11e5-99b2-44a842186463","timezone":"America/New_York","d1":{"flow_quadrant":1,"congestion_level":0,"label":"SB","tracks":11195,"congestion_index":"11.38"}},{"name":"I-395 North of Duke St","timestamp":1528805082,"has_quality_warning":false,"longitude":-77.130732,"latitude":38.818808,"state":"VA","d0":{"flow_quadrant":3,"congestion_level":0,"label":"NB","tracks":175439,"congestion_index":16},"sid":"042d9ade-84c6-11e5-99b2-44a842186463-21","tv_host":"042d9ade-84c6-11e5-99b2-44a842186463","timezone":"America/New_York","d1":{"flow_quadrant":1,"congestion_level":0,"label":"SB","tracks":478,"congestion_index":"2"}},{"name":"I-95 s/o Van Dorn St","timestamp":1528805082,"has_quality_warning":false,"longitude":-77.15365,"latitude":38.79318,"state":"VA","d0":{"flow_quadrant":0,"congestion_level":0,"label":"NB","tracks":76656,"congestion_index":26},"sid":"042d9ade-84c6-11e5-99b2-44a842186463-9","tv_host":"042d9ade-84c6-11e5-99b2-44a842186463","timezone":"America/New_York","d1":{"flow_quadrant":2,"congestion_level":0,"label":"SB","tracks":15395,"congestion_index":"5.84"}},{"name":"I-395 @ 14th St Bridge","timestamp":1528805082,"has_quality_warning":false,"longitude":-77.043314,"latitude":38.871671,"state":"VA","d0":{"flow_quadrant":1,"congestion_level":-1,"label":"NB","tracks":1,"congestion_index":-1},"sid":"042d9ade-84c6-11e5-99b2-44a842186463-14","tv_host":"042d9ade-84c6-11e5-99b2-44a842186463","timezone":"America/New_York","d1":{"flow_quadrant":2,"congestion_level":0,"label":"SB","tracks":4116,"congestion_index":"37.59"}},{"name":"I-66 @ Gallows Rd","timestamp":1528805083,"has_quality_warning":false,"longitude":-77.233276,"latitude":38.881494,"state":"VA","d0":{"flow_quadrant":3,"congestion_level":0,"label":"EB","tracks":71048,"congestion_index":4},"sid":"042d9ade-84c6-11e5-99b2-44a842186463-59","tv_host":"042d9ade-84c6-11e5-99b2-44a842186463","timezone":"America/New_York","d1":{"flow_quadrant":1,"congestion_level":0,"label":"WB","tracks":20853,"congestion_index":"2.95"}},{"name":"I-66 @ Rt 123","timestamp":1528805083,"has_quality_warning":false,"longitude":-77.309123,"latitude":38.868763,"state":"VA","d0":{"flow_quadrant":3,"congestion_level":0,"label":"EB","tracks":145449,"congestion_index":13},"sid":"042d9ade-84c6-11e5-99b2-44a842186463-62","tv_host":"042d9ade-84c6-11e5-99b2-44a842186463","timezone":"America/New_York","d1":{"flow_quadrant":1,"congestion_level":0,"label":"WB","tracks":36229,"congestion_index":"4.27"}},{"name":"I-66 @ Waples Mill Rd","timestamp":1528805081,"has_quality_warning":false,"longitude":-77.336533,"latitude":38.863739,"state":"VA","d0":{"flow_quadrant":0,"congestion_level":0,"label":"EB","tracks":108565,"congestion_index":46},"sid":"042d9ade-84c6-11e5-99b2-44a842186463-63","tv_host":"042d9ade-84c6-11e5-99b2-44a842186463","timezone":"America/New_York","d1":{"flow_quadrant":2,"congestion_level":2,"label":"WB","tracks":126806,"congestion_index":"81.29"}},{"name":"I-395 @ Crystal City/Pentagon","timestamp":1528805082,"has_quality_warning":false,"longitude":-77.056146,"latitude":38.865717,"state":"VA","d0":{"flow_quadrant":3,"congestion_level":0,"label":"NB","tracks":81720,"congestion_index":33},"sid":"042d9ade-84c6-11e5-99b2-44a842186463-17","tv_host":"042d9ade-84c6-11e5-99b2-44a842186463","timezone":"America/New_York","d1":{"flow_quadrant":1,"congestion_level":0,"label":"SB","tracks":3566,"congestion_index":"2"}},{"name":"I-66 @ Lynn Street","timestamp":1528805082,"has_quality_warning":false,"longitude":-77.067982,"latitude":38.898305,"state":"VA","d0":{"flow_quadrant":0,"congestion_level":0,"label":"EB","tracks":8825,"congestion_index":21},"sid":"042d9ade-84c6-11e5-99b2-44a842186463-50","tv_host":"042d9ade-84c6-11e5-99b2-44a842186463","timezone":"America/New_York","d1":{"flow_quadrant":2,"congestion_level":0,"label":"WB","tracks":21292,"congestion_index":"2"}},{"name":"I-66 at Rt 7","timestamp":1528805081,"has_quality_warning":false,"longitude":-77.197339,"latitude":38.898944,"state":"VA","d0":{"flow_quadrant":0,"congestion_level":0,"label":"EB","tracks":14298,"congestion_index":2},"sid":"042d9ade-84c6-11e5-99b2-44a842186463-58","tv_host":"042d9ade-84c6-11e5-99b2-44a842186463","timezone":"America/New_York","d1":{"flow_quadrant":2,"congestion_level":0,"label":"WB","tracks":4464,"congestion_index":"10.2"}},{"name":"I-95 @ Telegraph Rd","timestamp":1528805082,"has_quality_warning":false,"longitude":-77.066666,"latitude":38.797766,"state":"VA","d0":{"flow_quadrant":0,"congestion_level":0,"label":"NB","tracks":4943,"congestion_index":2},"sid":"042d9ade-84c6-11e5-99b2-44a842186463-12","tv_host":"042d9ade-84c6-11e5-99b2-44a842186463","timezone":"America/New_York","d1":{"flow_quadrant":2,"congestion_level":0,"label":"SB","tracks":2756,"congestion_index":"2"}},{"name":"I-495 near Robinson Terminal","timestamp":1528805082,"has_quality_warning":false,"longitude":-77.180873,"latitude":38.792952,"state":"VA","d0":{"flow_quadrant":1,"congestion_level":2,"label":"NB","tracks":31930,"congestion_index":72},"sid":"042d9ade-84c6-11e5-99b2-44a842186463-8","tv_host":"042d9ade-84c6-11e5-99b2-44a842186463","timezone":"America/New_York","d1":{"flow_quadrant":2,"congestion_level":0,"label":"SB","tracks":17606,"congestion_index":"2.09"}},{"name":"I-66 @ Westmoreland/Wash Blvd","timestamp":1528805082,"has_quality_warning":false,"longitude":-77.16323,"latitude":38.88949,"state":"VA","d0":{"flow_quadrant":0,"congestion_level":0,"label":"EB","tracks":9799,"congestion_index":9},"sid":"042d9ade-84c6-11e5-99b2-44a842186463-56","tv_host":"042d9ade-84c6-11e5-99b2-44a842186463","timezone":"America/New_York","d1":{"flow_quadrant":2,"congestion_level":0,"label":"WB","tracks":30543,"congestion_index":"13.89"}},{"name":"I-395 @ Army Navy Drive","timestamp":1528805082,"has_quality_warning":false,"longitude":-77.049802,"latitude":38.86739,"state":"VA","d0":{"flow_quadrant":1,"congestion_level":2,"label":"NB","tracks":34741,"congestion_index":79},"sid":"042d9ade-84c6-11e5-99b2-44a842186463-16","tv_host":"042d9ade-84c6-11e5-99b2-44a842186463","timezone":"America/New_York","d1":{"flow_quadrant":2,"congestion_level":0,"label":"SB","tracks":3062,"congestion_index":"25.62"}},{"name":"I-95 s/o RT-7900 (Franconia Springfield Pkwy)","timestamp":1528805082,"has_quality_warning":false,"longitude":-77.182953,"latitude":38.759435,"state":"VA","d0":{"flow_quadrant":3,"congestion_level":0,"label":"NB","tracks":127937,"congestion_index":5},"sid":"042d9ade-84c6-11e5-99b2-44a842186463-25","tv_host":"042d9ade-84c6-11e5-99b2-44a842186463","timezone":"America/New_York","d1":{"flow_quadrant":1,"congestion_level":0,"label":"SB","tracks":10854,"congestion_index":"8.21"}},{"name":"I-495 @ Rt 50","timestamp":1528805083,"has_quality_warning":false,"longitude":-77.220492,"latitude":38.866095,"state":"VA","d0":{"flow_quadrant":3,"congestion_level":0,"label":"NB","tracks":59470,"congestion_index":7},"sid":"042d9ade-84c6-11e5-99b2-44a842186463-6","tv_host":"042d9ade-84c6-11e5-99b2-44a842186463","timezone":"America/New_York","d1":{"flow_quadrant":1,"congestion_level":0,"label":"SB","tracks":1441,"congestion_index":"2"}},{"name":"I-66 @ Spout Run","timestamp":1528805082,"has_quality_warning":false,"longitude":-77.100657,"latitude":38.893033,"state":"VA","d0":{"flow_quadrant":0,"congestion_level":0,"label":"EB","tracks":1968,"congestion_index":2},"sid":"042d9ade-84c6-11e5-99b2-44a842186463-52","tv_host":"042d9ade-84c6-11e5-99b2-44a842186463","timezone":"America/New_York","d1":{"flow_quadrant":2,"congestion_level":0,"label":"WB","tracks":6292,"congestion_index":"4.68"}},{"name":"I-95 @ Rt 123 / Gordon Blvd","timestamp":1528805082,"has_quality_warning":false,"longitude":-77.252866,"latitude":38.670868,"state":"VA","d0":{"flow_quadrant":0,"congestion_level":0,"label":"NB","tracks":3881,"congestion_index":10},"sid":"042d9ade-84c6-11e5-99b2-44a842186463-28","tv_host":"042d9ade-84c6-11e5-99b2-44a842186463","timezone":"America/New_York","d1":{"flow_quadrant":2,"congestion_level":0,"label":"SB","tracks":1616,"congestion_index":"3.27"}},{"name":"I-395 North of Edsall Rd","timestamp":1528805082,"has_quality_warning":false,"longitude":-77.154525,"latitude":38.808082,"state":"VA","d0":{"flow_quadrant":0,"congestion_level":0,"label":"NB","tracks":141711,"congestion_index":21},"sid":"042d9ade-84c6-11e5-99b2-44a842186463-23","tv_host":"042d9ade-84c6-11e5-99b2-44a842186463","timezone":"America/New_York","d1":{"flow_quadrant":2,"congestion_level":0,"label":"SB","tracks":30406,"congestion_index":"15.58"}},{"name":"I-66 w/o Nutley St","timestamp":1528805082,"has_quality_warning":false,"longitude":-77.282728,"latitude":38.874796,"state":"VA","d0":{"flow_quadrant":1,"congestion_level":0,"label":"EB","tracks":66867,"congestion_index":11},"sid":"042d9ade-84c6-11e5-99b2-44a842186463-60","tv_host":"042d9ade-84c6-11e5-99b2-44a842186463","timezone":"America/New_York","d1":{"flow_quadrant":2,"congestion_level":0,"label":"WB","tracks":120890,"congestion_index":"6.18"}},{"name":"I-66 @ Rt-50","timestamp":1528805082,"has_quality_warning":false,"longitude":-77.35238,"latitude":38.860837,"state":"VA","d0":{"flow_quadrant":3,"congestion_level":2,"label":"EB","tracks":270943,"congestion_index":70},"sid":"042d9ade-84c6-11e5-99b2-44a842186463-65","tv_host":"042d9ade-84c6-11e5-99b2-44a842186463","timezone":"America/New_York","d1":{"flow_quadrant":1,"congestion_level":0,"label":"WB","tracks":30923,"congestion_index":"2"}},{"name":"I-66 e/o RT-28","timestamp":1528805082,"has_quality_warning":false,"longitude":-77.421339,"latitude":38.848798,"state":"VA","d0":{"flow_quadrant":1,"congestion_level":0,"label":"EB","tracks":68672,"congestion_index":34},"sid":"042d9ade-84c6-11e5-99b2-44a842186463-70","tv_host":"042d9ade-84c6-11e5-99b2-44a842186463","timezone":"America/New_York","d1":{"flow_quadrant":2,"congestion_level":0,"label":"WB","tracks":221034,"congestion_index":"38.8"}},{"name":"I-395 @ Ridge Rd","timestamp":1528805081,"has_quality_warning":false,"longitude":-77.069827,"latitude":38.858878,"state":"VA","d0":{"flow_quadrant":3,"congestion_level":0,"label":"NB","tracks":69996,"congestion_index":2},"sid":"042d9ade-84c6-11e5-99b2-44a842186463-18","tv_host":"042d9ade-84c6-11e5-99b2-44a842186463","timezone":"America/New_York","d1":{"flow_quadrant":1,"congestion_level":0,"label":"SB","tracks":7570,"congestion_index":"2"}},{"name":"I66 @ Stringfellow rd","timestamp":1528805082,"has_quality_warning":false,"longitude":-77.403144,"latitude":38.85169,"state":"VA","d0":{"flow_quadrant":1,"congestion_level":0,"label":"EB","tracks":35444,"congestion_index":5},"sid":"042d9ade-84c6-11e5-99b2-44a842186463-68","tv_host":"042d9ade-84c6-11e5-99b2-44a842186463","timezone":"America/New_York","d1":{"flow_quadrant":2,"congestion_level":0,"label":"WB","tracks":110270,"congestion_index":"9.14"}},{"name":"I-95 South of Edsall Rd","timestamp":1527075088,"has_quality_warning":false,"longitude":-77.168824,"latitude":38.797249,"state":"VA","d0":{"flow_quadrant":0,"congestion_level":1,"label":"NB","tracks":16519,"congestion_index":63},"sid":"042d9ade-84c6-11e5-99b2-44a842186463-24","tv_host":"042d9ade-84c6-11e5-99b2-44a842186463","timezone":"America/New_York","d1":{"flow_quadrant":2,"congestion_level":-1,"label":"SB","tracks":53,"congestion_index":"-1"}},{"name":"I-395 South of Duke St","timestamp":1528805082,"has_quality_warning":false,"longitude":-77.145732,"latitude":38.812431,"state":"VA","d0":{"flow_quadrant":1,"congestion_level":0,"label":"NB","tracks":70111,"congestion_index":4},"sid":"042d9ade-84c6-11e5-99b2-44a842186463-22","tv_host":"042d9ade-84c6-11e5-99b2-44a842186463","timezone":"America/New_York","d1":{"flow_quadrant":2,"congestion_level":0,"label":"SB","tracks":915,"congestion_index":"2"}},{"name":"I-495 @ Georgetown Pk","timestamp":1528805080,"has_quality_warning":false,"longitude":-77.196472,"latitude":38.951183,"state":"VA","d0":{"flow_quadrant":0,"congestion_level":-1,"label":"NB","tracks":42,"congestion_index":-1},"sid":"042d9ade-84c6-11e5-99b2-44a842186463-1","tv_host":"042d9ade-84c6-11e5-99b2-44a842186463","timezone":"America/New_York","d1":{"flow_quadrant":2,"congestion_level":0,"label":"SB","tracks":3769,"congestion_index":"2"}},{"name":"I-66 @ Leeds Manor Rd (MM 18.9)","timestamp":1528795742,"has_quality_warning":false,"longitude":-77.997985,"latitude":38.906975,"state":"VA","d0":{"flow_quadrant":0,"congestion_level":-1,"label":"EB","tracks":52354,"congestion_index":-1},"sid":"042d9ade-84c6-11e5-99b2-44a842186463-57","tv_host":"042d9ade-84c6-11e5-99b2-44a842186463","timezone":"America/New_York","d1":{"flow_quadrant":2,"congestion_level":-1,"label":"WB","tracks":8795,"congestion_index":"-1"}},{"name":"I-66 @ Rt 50","timestamp":1528805082,"has_quality_warning":false,"longitude":-77.347582,"latitude":38.86301,"state":"VA","d0":{"flow_quadrant":0,"congestion_level":0,"label":"EB","tracks":33537,"congestion_index":2},"sid":"042d9ade-84c6-11e5-99b2-44a842186463-64","tv_host":"042d9ade-84c6-11e5-99b2-44a842186463","timezone":"America/New_York","d1":{"flow_quadrant":2,"congestion_level":0,"label":"WB","tracks":167710,"congestion_index":"46.49"}},{"name":"I-95 North of Rt 1","timestamp":1528805082,"has_quality_warning":false,"longitude":-77.227051,"latitude":38.692435,"state":"VA","d0":{"flow_quadrant":3,"congestion_level":0,"label":"NB","tracks":174645,"congestion_index":11},"sid":"042d9ade-84c6-11e5-99b2-44a842186463-27","tv_host":"042d9ade-84c6-11e5-99b2-44a842186463","timezone":"America/New_York","d1":{"flow_quadrant":1,"congestion_level":0,"label":"SB","tracks":17149,"congestion_index":"3.03"}},{"name":"I-66 @ Fairfax County Parkway","timestamp":1528805081,"has_quality_warning":false,"longitude":-77.389714,"latitude":38.854089,"state":"VA","d0":{"flow_quadrant":3,"congestion_level":0,"label":"EB","tracks":241850,"congestion_index":44},"sid":"042d9ade-84c6-11e5-99b2-44a842186463-67","tv_host":"042d9ade-84c6-11e5-99b2-44a842186463","timezone":"America/New_York","d1":{"flow_quadrant":1,"congestion_level":0,"label":"WB","tracks":30972,"congestion_index":"2"}},{"name":"I-66 w/o Fairfax County Parkway","timestamp":1528805082,"has_quality_warning":false,"longitude":-77.423452,"latitude":38.847958,"state":"VA","d0":{"flow_quadrant":3,"congestion_level":0,"label":"EB","tracks":239998,"congestion_index":29},"sid":"042d9ade-84c6-11e5-99b2-44a842186463-69","tv_host":"042d9ade-84c6-11e5-99b2-44a842186463","timezone":"America/New_York","d1":{"flow_quadrant":1,"congestion_level":0,"label":"WB","tracks":32393,"congestion_index":"20.79"}},{"name":"I-66 @ Scott St","timestamp":1528805083,"has_quality_warning":false,"longitude":-77.082558,"latitude":38.897498,"state":"VA","d0":{"flow_quadrant":0,"congestion_level":0,"label":"EB","tracks":7208,"congestion_index":2},"sid":"042d9ade-84c6-11e5-99b2-44a842186463-51","tv_host":"042d9ade-84c6-11e5-99b2-44a842186463","timezone":"America/New_York","d1":{"flow_quadrant":2,"congestion_level":0,"label":"WB","tracks":19067,"congestion_index":"2"}},{"name":"Fairfax Co Pkwy (VA-286) & Franconia-Springfield Pkwy (VA-289)","timestamp":1528805100,"has_quality_warning":false,"longitude":-77.216944,"latitude":38.758889,"state":"VA","d0":{"flow_quadrant":1,"congestion_level":0,"label":"NB","tracks":8704,"congestion_index":20},"sid":"31d7af37-3812-11e8-9676-0e10dee97706-35","tv_host":"31d7af37-3812-11e8-9676-0e10dee97706","timezone":"America/New_York","d1":{"flow_quadrant":2,"congestion_level":-1,"label":"SB","tracks":0,"congestion_index":"-1"}},{"name":"I-66 / MM 67.5 / Median","timestamp":1528805103,"has_quality_warning":false,"longitude":-77.1701,"latitude":38.8949,"state":"VA","d0":{"flow_quadrant":1,"congestion_level":0,"label":"NB","tracks":33748,"congestion_index":8},"sid":"31d7af37-3812-11e8-9676-0e10dee97706-37","tv_host":"31d7af37-3812-11e8-9676-0e10dee97706","timezone":"America/New_York","d1":{"flow_quadrant":2,"congestion_level":0,"label":"SB","tracks":43634,"congestion_index":"4.85"}},{"name":"I-66 / MM 67.5 / WB","timestamp":1528805103,"has_quality_warning":false,"longitude":-77.172271,"latitude":38.896295,"state":"VA","d0":{"flow_quadrant":3,"congestion_level":0,"label":"WB","tracks":83163,"congestion_index":2},"sid":"31d7af37-3812-11e8-9676-0e10dee97706-38","tv_host":"31d7af37-3812-11e8-9676-0e10dee97706","timezone":"America/New_York","d1":{"flow_quadrant":1,"congestion_level":0,"label":"EB","tracks":16204,"congestion_index":"2"}},{"name":"I-66 / MM 64.5 / WB / East of I-495","timestamp":1528805105,"has_quality_warning":false,"longitude":-77.21192,"latitude":38.89054,"state":"VA","d0":{"flow_quadrant":0,"congestion_level":-1,"label":"WB","tracks":22679,"congestion_index":-1},"sid":"31d7af37-3812-11e8-9676-0e10dee97706-39","tv_host":"31d7af37-3812-11e8-9676-0e10dee97706","timezone":"America/New_York","d1":{"flow_quadrant":2,"congestion_level":-1,"label":"EB","tracks":4335,"congestion_index":"-1"}},{"name":"I-81  /  MM 321  /  NB  / Clearbrook VA 22624","timestamp":1528805089,"has_quality_warning":false,"longitude":-78.10058,"latitude":39.25673,"state":"VA","d0":{"flow_quadrant":3,"congestion_level":0,"label":"NB","tracks":11771,"congestion_index":9},"sid":"31d7af37-3812-11e8-9676-0e10dee97706-43","tv_host":"31d7af37-3812-11e8-9676-0e10dee97706","timezone":"America/New_York","d1":{"flow_quadrant":1,"congestion_level":0,"label":"SB","tracks":7326,"congestion_index":"5.2"}},{"name":"I-95 / MM 174 / SB / East of Exit 174, Eisenhower Ave Connector","timestamp":1528805102,"has_quality_warning":false,"longitude":-77.106031,"latitude":38.803196,"state":"VA","d0":{"flow_quadrant":3,"congestion_level":0,"label":"SB","tracks":7300,"congestion_index":2},"sid":"31d7af37-3812-11e8-9676-0e10dee97706-44","tv_host":"31d7af37-3812-11e8-9676-0e10dee97706","timezone":"America/New_York","d1":{"flow_quadrant":1,"congestion_level":0,"label":"NB","tracks":3866,"congestion_index":"6.51"}},{"name":"I-95  /  MM 173  /  NB  /  East of Exit 173, Route 401 - VanDorn St","timestamp":1528805101,"has_quality_warning":false,"longitude":-77.131544,"latitude":38.796678,"state":"VA","d0":{"flow_quadrant":3,"congestion_level":0,"label":"NB","tracks":658,"congestion_index":2},"sid":"31d7af37-3812-11e8-9676-0e10dee97706-46","tv_host":"31d7af37-3812-11e8-9676-0e10dee97706","timezone":"America/New_York","d1":{"flow_quadrant":1,"congestion_level":0,"label":"SB","tracks":59634,"congestion_index":"2.96"}},{"name":"I-495  /  MM 44  /  SB  /  Looking North from Route 738  - Old Dominion Dr","timestamp":1527780590,"has_quality_warning":false,"longitude":-77.2030556,"latitude":38.9455556,"state":"VA","d0":{"flow_quadrant":3,"congestion_level":0,"label":"SB","tracks":168315,"congestion_index":11},"sid":"cc90552f-3811-11e8-816b-128dbb2c8132-34","tv_host":"cc90552f-3811-11e8-816b-128dbb2c8132","timezone":"America/New_York","d1":{"flow_quadrant":1,"congestion_level":0,"label":"NB","tracks":59680,"congestion_index":"5.66"}},{"name":"I-495  /  MM 43.5  /  NB  /  Exit 44 Route 193 - Georgetown Pike","timestamp":1528805104,"has_quality_warning":false,"longitude":-77.19353,"latitude":38.95427,"state":"VA","d0":{"flow_quadrant":3,"congestion_level":0,"label":"NB","tracks":142711,"congestion_index":26},"sid":"cc90552f-3811-11e8-816b-128dbb2c8132-35","tv_host":"cc90552f-3811-11e8-816b-128dbb2c8132","timezone":"America/New_York","d1":{"flow_quadrant":1,"congestion_level":0,"label":"SB","tracks":72776,"congestion_index":"5.76"}},{"name":"US-29 / Median / US-17 Split / Warrenton","timestamp":1528801753,"has_quality_warning":false,"longitude":-77.78132,"latitude":38.72467,"state":"VA","d0":{"flow_quadrant":1,"congestion_level":0,"label":"NB","tracks":5542,"congestion_index":3},"sid":"cc90552f-3811-11e8-816b-128dbb2c8132-41","tv_host":"cc90552f-3811-11e8-816b-128dbb2c8132","timezone":"America/New_York","d1":{"flow_quadrant":2,"congestion_level":0,"label":"SB","tracks":1657,"congestion_index":"2"}},{"name":"I-66 / MM 45.4 / Median","timestamp":1528805103,"has_quality_warning":false,"longitude":-77.5563417,"latitude":38.7989722,"state":"VA","d0":{"flow_quadrant":1,"congestion_level":0,"label":"NB","tracks":18460,"congestion_index":14},"sid":"28385b4c-39c5-11e8-b8d8-0a6a36af6b84-13","tv_host":"28385b4c-39c5-11e8-b8d8-0a6a36af6b84","timezone":"America/New_York","d1":{"flow_quadrant":2,"congestion_level":1,"label":"SB","tracks":205060,"congestion_index":"64.14"}},{"name":"I-66 / MM 46.2 / Median","timestamp":1528805103,"has_quality_warning":false,"longitude":-77.5396,"latitude":38.8001,"state":"VA","d0":{"flow_quadrant":1,"congestion_level":1,"label":"NB","tracks":43943,"congestion_index":50},"sid":"28385b4c-39c5-11e8-b8d8-0a6a36af6b84-15","tv_host":"28385b4c-39c5-11e8-b8d8-0a6a36af6b84","timezone":"America/New_York","d1":{"flow_quadrant":2,"congestion_level":0,"label":"SB","tracks":12558,"congestion_index":"2"}},{"name":"I-66 / MM 42.2 / Median","timestamp":1528805102,"has_quality_warning":false,"longitude":-77.611675,"latitude":38.8040111,"state":"VA","d0":{"flow_quadrant":1,"congestion_level":0,"label":"NB","tracks":21900,"congestion_index":2},"sid":"28385b4c-39c5-11e8-b8d8-0a6a36af6b84-2","tv_host":"28385b4c-39c5-11e8-b8d8-0a6a36af6b84","timezone":"America/New_York","d1":{"flow_quadrant":2,"congestion_level":0,"label":"SB","tracks":28615,"congestion_index":"2"}},{"name":"I-66 / MM 43.5 / Median","timestamp":1528805102,"has_quality_warning":false,"longitude":-77.5858972,"latitude":38.7980333,"state":"VA","d0":{"flow_quadrant":1,"congestion_level":0,"label":"NB","tracks":18224,"congestion_index":2},"sid":"28385b4c-39c5-11e8-b8d8-0a6a36af6b84-7","tv_host":"28385b4c-39c5-11e8-b8d8-0a6a36af6b84","timezone":"America/New_York","d1":{"flow_quadrant":2,"congestion_level":0,"label":"SB","tracks":61503,"congestion_index":"2"}},{"name":"I-66 / MM 44.1 / Median","timestamp":1528805102,"has_quality_warning":false,"longitude":-77.5801,"latitude":38.7976,"state":"VA","d0":{"flow_quadrant":1,"congestion_level":0,"label":"NB","tracks":27887,"congestion_index":7},"sid":"28385b4c-39c5-11e8-b8d8-0a6a36af6b84-9","tv_host":"28385b4c-39c5-11e8-b8d8-0a6a36af6b84","timezone":"America/New_York","d1":{"flow_quadrant":2,"congestion_level":1,"label":"SB","tracks":211809,"congestion_index":"61.04"}},{"name":"I-66 / MM 46.6 / EB / Exit 47, Route 234 - Sudley Rd","timestamp":1528805103,"has_quality_warning":false,"longitude":-77.532964,"latitude":38.800278,"state":"VA","d0":{"flow_quadrant":0,"congestion_level":2,"label":"EB","tracks":160544,"congestion_index":92},"sid":"28385b4c-39c5-11e8-b8d8-0a6a36af6b84-18","tv_host":"28385b4c-39c5-11e8-b8d8-0a6a36af6b84","timezone":"America/New_York","d1":{"flow_quadrant":2,"congestion_level":0,"label":"WB","tracks":11232,"congestion_index":"2"}},{"name":"I-95 / MM 176 / SB / East of Exit 176, Telegraph Rd","timestamp":1528805102,"has_quality_warning":false,"longitude":-77.0665,"latitude":38.7979,"state":"VA","d0":{"flow_quadrant":0,"congestion_level":0,"label":"SB","tracks":85960,"congestion_index":2},"sid":"28385b4c-39c5-11e8-b8d8-0a6a36af6b84-21","tv_host":"28385b4c-39c5-11e8-b8d8-0a6a36af6b84","timezone":"America/New_York","d1":{"flow_quadrant":2,"congestion_level":0,"label":"NB","tracks":47577,"congestion_index":"2"}},{"name":"I-66 / MM 69.8 / EB / 69.8 Mile Marker N. Ohio St Overpass","timestamp":1528805102,"has_quality_warning":false,"longitude":-77.1459056,"latitude":38.8821028,"state":"VA","d0":{"flow_quadrant":3,"congestion_level":0,"label":"EB","tracks":97403,"congestion_index":2},"sid":"28385b4c-39c5-11e8-b8d8-0a6a36af6b84-23","tv_host":"28385b4c-39c5-11e8-b8d8-0a6a36af6b84","timezone":"America/New_York","d1":{"flow_quadrant":1,"congestion_level":0,"label":"WB","tracks":4481,"congestion_index":"2"}},{"name":"I-95 / MM 177 / NB / West of US-1","timestamp":1528805102,"has_quality_warning":false,"longitude":-77.057936,"latitude":38.794104,"state":"VA","d0":{"flow_quadrant":3,"congestion_level":0,"label":"NB","tracks":51994,"congestion_index":2},"sid":"f20f17e0-361d-11e8-87fd-129edad0f3f0-20","tv_host":"f20f17e0-361d-11e8-87fd-129edad0f3f0","timezone":"America/New_York","d1":{"flow_quadrant":2,"congestion_level":0,"label":"SB","tracks":42094,"congestion_index":"2"}},{"name":"I-66  /  MM 31.8  /  WB  /  The Plains VA","timestamp":1528805094,"has_quality_warning":false,"longitude":-77.7895,"latitude":38.8504,"state":"VA","d0":{"flow_quadrant":0,"congestion_level":0,"label":"WB","tracks":26442,"congestion_index":8},"sid":"f20f17e0-361d-11e8-87fd-129edad0f3f0-32","tv_host":"f20f17e0-361d-11e8-87fd-129edad0f3f0","timezone":"America/New_York","d1":{"flow_quadrant":2,"congestion_level":0,"label":"EB","tracks":10087,"congestion_index":"2.52"}}]